[{
  "lat": 40.424842233578424,
  "lon": -3.7074190426136306,
  "nombre": "Noviciado",
  "lineas": [
    ["metro", 2]
  ]
},{
  "lat": 40.41147221920649,
  "lon": -3.6617852707606366,
  "nombre": "Estrella",
  "lineas": [
    ["metro", 9]
  ]
},{
  "lat": 40.44197535635587,
  "lon": -3.701328481177294,
  "nombre": "Rios Rosas",
  "lineas": [
    ["metro", 1]
  ]
},{
  "lat": 40.39480775740209,
  "lon": -3.768128136787409,
  "nombre": "Campamento",
  "lineas": [
    ["metro", 5]
  ]
},{
  "lat": 40.38709669326968,
  "lon": -3.706895642789324,
  "nombre": "Usera",
  "lineas": [
    ["metro", 6]
  ]
},{
  "lat": 40.42288842464461,
  "lon": -3.6685951462919535,
  "nombre": "O'donnell",
  "lineas": [
    ["metro", 6]
  ]
},{
  "lat": 40.41389889439627,
  "lon": -3.7272404518154256,
  "nombre": "Puerta del Angel",
  "lineas": [
    ["metro", 6]
  ]
},{
  "lat": 40.329072367482894,
  "lon": -3.7296331804893366,
  "nombre": "El Bercial",
  "lineas": [
    ["metro", 12]
  ]
},{
  "lat": 40.375031361291015,
  "lon": -3.6958546924445588,
  "nombre": "Hospital 12 de Octubre",
  "lineas": [
    ["metro", 3]
  ]
},{
  "lat": 40.38409352717396,
  "lon": -3.697881397655217,
  "nombre": "Almendrales",
  "lineas": [
    ["metro", 3]
  ]
},{
  "lat": 40.40851094285593,
  "lon": -3.7009041232004773,
  "nombre": "Lavapies",
  "lineas": [
    ["metro", 3]
  ]
},{
  "lat": 40.50120462748204,
  "lon": -3.6952024504667387,
  "nombre": "Tres Olivos",
  "lineas": [
    ["metro", 10]
  ]
},{
  "lat": 40.36999093055091,
  "lon": -3.6941764145036964,
  "nombre": "San Fermin-orcasur",
  "lineas": [
    ["metro", 3]
  ]
},{
  "lat": 40.428423190545146,
  "lon": -3.633299465727318,
  "nombre": "Garcia Noblejas",
  "lineas": [
    ["metro", 7]
  ]
},{
  "lat": 40.437892533874894,
  "lon": -3.6913752324809934,
  "nombre": "Gregorio Mara\u00f1on",
  "lineas": [
    ["metro", 7],
    ["metro", 10]
  ]
},{
  "lat": 40.47592352024965,
  "lon": -3.715824157912478,
  "nombre": "Pe\u00f1agrande",
  "lineas": [
    ["metro", 7]
  ]
},{
  "lat": 40.48466278015302,
  "lon": -3.70751021303079,
  "nombre": "Herrera Oria",
  "lineas": [
    ["metro", 9]
  ]
},{
  "lat": 40.46300276051131,
  "lon": -3.67579015001895,
  "nombre": "Pio XII",
  "lineas": [
    ["metro", 9]
  ]
},{
  "lat": 40.43059704287626,
  "lon": -3.715958562088765,
  "nombre": "Arg\u00fcelles",
  "lineas": [
    ["metro", 3],
    ["metro", 4],
    ["metro", 6]
  ]
},{
  "lat": 40.42010987474081,
  "lon": -3.7056630067719665,
  "nombre": "Callao",
  "lineas": [
    ["metro", 3],
    ["metro", 5]
  ]
},{
  "lat": 40.47537171795902,
  "lon": -3.6525726113410113,
  "nombre": "Hortaleza",
  "lineas": [
    ["metro", 4]
  ]
},{
  "lat": 40.491767148774805,
  "lon": -3.5932885293476398,
  "nombre": "Aeropuerto t4",
  "lineas": [
    ["cercanias", "C1"],
    ["metro", 8]
  ]
},{
  "lat": 40.495104807897505,
  "lon": -3.725866244503999,
  "nombre": "Pitis",
  "lineas": [
    ["cercanias", "C3"],
    ["cercanias", "C7"],
    ["cercanias", "C8"],
    ["metro", 7]
  ]
},{
  "lat": 40.32850021833154,
  "lon": -3.863542175638656,
  "nombre": "Mostoles Central",
  "lineas": [
    ["metro", 12]
  ]
},{
  "lat": 40.40703575446187,
  "lon": -3.711046450767629,
  "nombre": "Puerta de Toledo",
  "lineas": [
    ["metro", 5]
  ]
},{
  "lat": 40.53195564734653,
  "lon": -3.635559522713986,
  "nombre": "La Moraleja",
  "lineas": [
    ["metro", 10]
  ]
},{
  "lat": 40.2826757751405,
  "lon": -3.7989069007820175,
  "nombre": "Fuenlabrada Central",
  "lineas": [
    ["metro", 12]
  ]
},{
  "lat": 40.43933749524513,
  "lon": -3.672151601329782,
  "nombre": "Cartagena",
  "lineas": [
    ["metro", 7]
  ]
},{
  "lat": 40.42375145628393,
  "lon": -3.7104478745889145,
  "nombre": "Plaza de Espa\u00f1a",
  "lineas": [
    ["metro", 3],
    ["metro", 10]
  ]
},{
  "lat": 40.43906820663266,
  "lon": -3.7137286447993536,
  "nombre": "Islas Filipinas",
  "lineas": [
    ["metro", 7]
  ]
},{
  "lat": 40.41839121058978,
  "lon": -3.6785751055264586,
  "nombre": "Ibiza",
  "lineas": [
    ["metro", 9]
  ]
},{
  "lat": 40.450331975994324,
  "lon": -3.7033142092757845,
  "nombre": "Alvarado",
  "lineas": [
    ["metro", 1]
  ]
},{
  "lat": 40.42541918213737,
  "lon": -3.6910073925714295,
  "nombre": "Colon",
  "lineas": [
    ["metro", 4]
  ]
},{
  "lat": 40.41805074812411,
  "lon": -3.699251138040337,
  "nombre": "Sevilla",
  "lineas": [
    ["metro", 2]
  ]
},{
  "lat": 40.4192197861148,
  "lon": -3.6949651055813844,
  "nombre": "Banco de Espa\u00f1a",
  "lineas": [
    ["metro", 2]
  ]
},{
  "lat": 40.45428802582823,
  "lon": -3.7030229599498505,
  "nombre": "Estrecho",
  "lineas": [
    ["metro", 1]
  ]
},{
  "lat": 40.34134215405359,
  "lon": -3.5247890122718806,
  "nombre": "Rivas Futura",
  "lineas": [
    ["metro", 9]
  ]
},{
  "lat": 40.38460042289481,
  "lon": -3.718311325709353,
  "nombre": "Plaza Eliptica",
  "lineas": [
    ["metro", 6],
    ["metro", 11]
  ]
},{
  "lat": 40.4686442368363,
  "lon": -3.569538255943205,
  "nombre": "Aeropuerto t1 t2 t3",
  "lineas": [
    ["metro", 8]
  ]
},{
  "lat": 40.43850488513286,
  "lon": -3.659214908660298,
  "nombre": "Avenida de America",
  "lineas": [
    ["metro", 4],
    ["metro", 6],
    ["metro", 7],
    ["metro", 9]
  ]
},{
  "lat": 40.446974274849055,
  "lon": -3.703921735435756,
  "nombre": "Cuatro Caminos",
  "lineas": [
    ["metro", 1],
    ["metro", 2],
    ["metro", 6]
  ]
},{
  "lat": 40.427904326822485,
  "lon": -3.6692316918806824,
  "nombre": "Manuel Becerra",
  "lineas": [
    ["metro", 2],
    ["metro", 6]
  ]
},{
  "lat": 40.39819215100294,
  "lon": -3.669058999478586,
  "nombre": "Puente de Vallecas",
  "lineas": [
    ["metro", 1]
  ]
},{
  "lat": 40.42295480433805,
  "lon": -3.5254937648988705,
  "nombre": "Jarama",
  "lineas": [
    ["metro", 7]
  ]
},{
  "lat": 40.438557752972514,
  "lon": -3.7046117810055215,
  "nombre": "Canal",
  "lineas": [
    ["metro", 2],
    ["metro", 7]
  ]
},{
  "lat": 40.51553464717745,
  "lon": -3.6627651035032445,
  "nombre": "Ronda de la Comunicacion",
  "lineas": [
    ["metro", 10]
  ]
},{
  "lat": 40.4281762411797,
  "lon": -3.6957978277279486,
  "nombre": "Alonso Martinez",
  "lineas": [
    ["metro", 4],
    ["metro", 5],
    ["metro", 10]
  ]
},{
  "lat": 40.40307228397831,
  "lon": -3.6942326840798296,
  "nombre": "Palos de la Frontera",
  "lineas": [
    ["metro", 3]
  ]
},{
  "lat": 40.4356756772457,
  "lon": -3.6428231006957095,
  "nombre": "Pueblo Nuevo",
  "lineas": [
    ["metro", 5],
    ["metro", 7]
  ]
},{
  "lat": 40.44634748804117,
  "lon": -3.712293840793377,
  "nombre": "Guzman el Bueno",
  "lineas": [
    ["metro", 6],
    ["metro", 7]
  ]
},{
  "lat": 40.40166676380209,
  "lon": -3.674496297312614,
  "nombre": "Pacifico",
  "lineas": [
    ["metro", 1],
    ["metro", 6]
  ]
},{
  "lat": 40.419997448622595,
  "lon": -3.7018040420991847,
  "nombre": "Gran Via",
  "lineas": [
    ["metro", 1],
    ["metro", 5]
  ]
},{
  "lat": 40.3821642503006,
  "lon": -3.6247174701487794,
  "nombre": "Sierra de Guadalupe",
  "lineas": [
    ["metro", 1]
  ]
},{
  "lat": 40.495085162407655,
  "lon": -3.692831231006568,
  "nombre": "Fuencarral",
  "lineas": [
    ["metro", 10]
  ]
},{
  "lat": 40.46442417859868,
  "lon": -3.6950620375087544,
  "nombre": "Valdeacederas",
  "lineas": [
    ["metro", 1]
  ]
},{
  "lat": 40.37586863665673,
  "lon": -3.7341688565304656,
  "nombre": "Pan Bendito",
  "lineas": [
    ["metro", 11]
  ]
},{
  "lat": 40.34968728152219,
  "lon": -3.8211957325521553,
  "nombre": "Parque Lisboa",
  "lineas": [
    ["metro", 12]
  ]
},{
  "lat": 40.39920281757493,
  "lon": -3.744254953686993,
  "nombre": "Laguna",
  "lineas": [
    ["cercanias", "C5"],
    ["metro", 6]
  ]
},{
  "lat": 40.28683580053262,
  "lon": -3.786974043457501,
  "nombre": "Parque de los Estados",
  "lineas": [
    ["metro", 12]
  ]
},{
  "lat": 40.31180236485632,
  "lon": -3.722240122704442,
  "nombre": "Juan de la Cierva",
  "lineas": [
    ["metro", 12]
  ]
},{
  "lat": 40.33663824377751,
  "lon": -3.7401848829148365,
  "nombre": "El Carrascal",
  "lineas": [
    ["metro", 12]
  ]
},{
  "lat": 40.32660272138423,
  "lon": -3.75942499130863,
  "nombre": "Casa del Reloj",
  "lineas": [
    ["metro", 12]
  ]
},{
  "lat": 40.453468332704944,
  "lon": -3.5940116576957872,
  "nombre": "El Capricho",
  "lineas": [
    ["metro", 5]
  ]
},{
  "lat": 40.379598611419055,
  "lon": -3.621296484882349,
  "nombre": "Villa de Vallecas",
  "lineas": [
    ["metro", 1]
  ]
},{
  "lat": 40.40004712961799,
  "lon": -3.6215591598085286,
  "nombre": "Valdebernardo",
  "lineas": [
    ["metro", 9]
  ]
},{
  "lat": 40.45691440936877,
  "lon": -3.676881673088854,
  "nombre": "Colombia",
  "lineas": [
    ["metro", 8],
    ["metro", 9]
  ]
},{
  "lat": 40.432988127939815,
  "lon": -3.607879514276323,
  "nombre": "Las Musas",
  "lineas": [
    ["metro", 7]
  ]
},{
  "lat": 40.433326780370514,
  "lon": -3.6740510031267246,
  "nombre": "Diego de Leon",
  "lineas": [
    ["metro", 4],
    ["metro", 5],
    ["metro", 6]
  ]
},{
  "lat": 40.43145521465473,
  "lon": -3.6809718169696106,
  "nombre": "Nu\u00f1ez de Balboa",
  "lineas": [
    ["metro", 5],
    ["metro", 9]
  ]
},{
  "lat": 40.430884651004185,
  "lon": -3.663632354092448,
  "nombre": "Ventas",
  "lineas": [
    ["metro", 2],
    ["metro", 5]
  ]
},{
  "lat": 40.46689628794853,
  "lon": -3.6891274481887857,
  "nombre": "Plaza de Castilla",
  "lineas": [
    ["metro", 1],
    ["metro", 9],
    ["metro", 10]
  ]
},{
  "lat": 40.40131578216117,
  "lon": -3.5959753029479633,
  "nombre": "Puerta de Arganda",
  "lineas": [
    ["metro", 9]
  ]
},{
  "lat": 40.46389315131333,
  "lon": -3.6162046822415186,
  "nombre": "Campo de las Naciones",
  "lineas": [
    ["metro", 8]
  ]
},{
  "lat": 40.38438579717573,
  "lon": -3.7512111847828216,
  "nombre": "Eugenia de Montijo",
  "lineas": [
    ["metro", 5]
  ]
},{
  "lat": 40.357953128926525,
  "lon": -3.7778258498960042,
  "nombre": "La Fortuna",
  "lineas": [
    ["metro", 11]
  ]
},{
  "lat": 40.41829269464442,
  "lon": -3.6235060015486664,
  "nombre": "Alsacia",
  "lineas": [
    ["metro", 2]
  ]
},{
  "lat": 40.42361329068056,
  "lon": -3.6391423303625725,
  "nombre": "La Almudena",
  "lineas": [
    ["metro", 2]
  ]
},{
  "lat": 40.499654912051675,
  "lon": -3.709081480557363,
  "nombre": "Paco de Lucia",
  "lineas": [
    ["metro", 9]
  ]
},{
  "lat": 40.425032550864806,
  "lon": -3.6829181480861983,
  "nombre": "Velazquez",
  "lineas": [
    ["metro", 4]
  ]
},{
  "lat": 40.444188974144545,
  "lon": -3.674818902992059,
  "nombre": "Prosperidad",
  "lineas": [
    ["metro", 4]
  ]
},{
  "lat": 40.4558324918715,
  "lon": -3.656181218097823,
  "nombre": "Arturo Soria",
  "lineas": [
    ["metro", 4]
  ]
},{
  "lat": 40.463810536980176,
  "lon": -3.6355954639810872,
  "nombre": "Canillas",
  "lineas": [
    ["metro", 4]
  ]
},{
  "lat": 40.47711429389674,
  "lon": -3.6452420021656278,
  "nombre": "Parque de Santa Maria",
  "lineas": [
    ["metro", 4]
  ]
},{
  "lat": 40.4380484084201,
  "lon": -3.638157588345499,
  "nombre": "Ciudad Lineal",
  "lineas": [
    ["metro", 5]
  ]
},{
  "lat": 40.41128032868688,
  "lon": -3.708160868519015,
  "nombre": "La Latina",
  "lineas": [
    ["metro", 5]
  ]
},{
  "lat": 40.38782701996798,
  "lon": -3.744870521041383,
  "nombre": "Carabanchel",
  "lineas": [
    ["metro", 5]
  ]
},{
  "lat": 40.366771502577514,
  "lon": -3.5472758067455525,
  "nombre": "Rivas Urbanizaciones",
  "lineas": [
    ["metro", 9]
  ]
},{
  "lat": 40.429168520255786,
  "lon": -3.675409822278686,
  "nombre": "Lista",
  "lineas": [
    ["metro", 4]
  ]
},{
  "lat": 40.416414110991504,
  "lon": -3.7356310593736235,
  "nombre": "Lago",
  "lineas": [
    ["metro", 10]
  ]
},{
  "lat": 40.40786020840237,
  "lon": -3.7531099371759526,
  "nombre": "Batan",
  "lineas": [
    ["metro", 10]
  ]
},{
  "lat": 40.41684601419932,
  "lon": -3.703205712208662,
  "nombre": "Sol",
  "lineas": [
    ["cercanias", "C3"],
    ["cercanias", "C4"],
    ["metro", 1],
    ["metro", 2],
    ["metro", 3]
  ]
},{
  "lat": 40.44659847470803,
  "lon": -3.6923853985324326,
  "nombre": "Nuevos Ministerios",
  "lineas": [
    ["cercanias", "C1"],
    ["cercanias", "C2"],
    ["cercanias", "C3"],
    ["cercanias", "C4"],
    ["cercanias", "C7"],
    ["cercanias", "C8"],
    ["cercanias", "C10"],
    ["metro", 6],
    ["metro", 8],
    ["metro", 10]
  ]
},{
  "lat": 40.31901573079284,
  "lon": -3.477447350588455,
  "nombre": "La Poveda",
  "lineas": [
    ["metro", 9]
  ]
},{
  "lat": 40.39057255783158,
  "lon": -3.765347875572339,
  "nombre": "Empalme",
  "lineas": [
    ["metro", 5]
  ]
},{
  "lat": 40.31001176227292,
  "lon": -3.7339834035082733,
  "nombre": "Getafe Central",
  "lineas": [
    ["cercanias", "C4"],
    ["metro", 12]
  ]
},{
  "lat": 40.42609029618531,
  "lon": -3.7015887991702963,
  "nombre": "Tribunal",
  "lineas": [
    ["metro", 1],
    ["metro", 10]
  ]
},{
  "lat": 40.39270189946354,
  "lon": -3.740993676713557,
  "nombre": "Carpetana",
  "lineas": [
    ["metro", 6]
  ]
},{
  "lat": 40.38690440425559,
  "lon": -3.723133621163613,
  "nombre": "Opa\u00f1el",
  "lineas": [
    ["metro", 6]
  ]
},{
  "lat": 40.40696795047538,
  "lon": -3.670408067233978,
  "nombre": "Conde de Casal",
  "lineas": [
    ["metro", 6]
  ]
},{
  "lat": 40.44643639934855,
  "lon": -3.719426711968892,
  "nombre": "Metropolitano",
  "lineas": [
    ["metro", 6]
  ]
},{
  "lat": 40.40992601698508,
  "lon": -3.7389361815722615,
  "nombre": "Alto de Extremadura",
  "lineas": [
    ["metro", 6]
  ]
},{
  "lat": 40.412348094110165,
  "lon": -3.704655268799714,
  "nombre": "Tirso de Molina",
  "lineas": [
    ["metro", 1]
  ]
},{
  "lat": 40.42708736443108,
  "lon": -3.713413096705454,
  "nombre": "Ventura Rodriguez",
  "lineas": [
    ["metro", 3]
  ]
},{
  "lat": 40.50828506232314,
  "lon": -3.669381499220798,
  "nombre": "Las Tablas",
  "lineas": [
    ["metro", 10],
    ["metro_ligero", "ML1"]
  ]
},{
  "lat": 40.40322510942737,
  "lon": -3.7610134743551336,
  "nombre": "Casa de Campo",
  "lineas": [
    ["metro", 5],
    ["metro", 10]
  ]
},{
  "lat": 40.44356467694622,
  "lon": -3.726784810097875,
  "nombre": "Ciudad Universitaria",
  "lineas": [
    ["metro", 6]
  ]
},{
  "lat": 40.41023992779957,
  "lon": -3.6527342071047637,
  "nombre": "Vinateros",
  "lineas": [
    ["metro", 9]
  ]
},{
  "lat": 40.4052238336675,
  "lon": -3.641812337774728,
  "nombre": "Artilleros",
  "lineas": [
    ["metro", 9]
  ]
},{
  "lat": 40.39553816215716,
  "lon": -3.6641417014856694,
  "nombre": "Nueva Numancia",
  "lineas": [
    ["metro", 1]
  ]
},{
  "lat": 40.40381175745944,
  "lon": -3.6023940495699014,
  "nombre": "San Cipriano",
  "lineas": [
    ["metro", 9]
  ]
},{
  "lat": 40.45778862852046,
  "lon": -3.5875209290434937,
  "nombre": "Alameda de Osuna",
  "lineas": [
    ["metro", 5]
  ]
},{
  "lat": 40.40885159837552,
  "lon": -3.692487271050582,
  "nombre": "Atocha",
  "lineas": [
    ["metro", 1]
  ]
},{
  "lat": 40.40658842872839,
  "lon": -3.6893399956660256,
  "nombre": "Atocha Renfe",
  "lineas": [
    ["cercanias", "C1"],
    ["cercanias", "C2"],
    ["cercanias", "C3"],
    ["cercanias", "C4"],
    ["cercanias", "C5"],
    ["cercanias", "C7"],
    ["cercanias", "C8"],
    ["cercanias", "C10"],
    ["metro", 1]
  ]
},{
  "lat": 40.41809334198036,
  "lon": -3.709349602704739,
  "nombre": "Opera",
  "lineas": [
    ["metro", 2],
    ["metro", 5],
    ["metro", "R"]
  ]
},{
  "lat": 40.46055188266481,
  "lon": -3.698249893972328,
  "nombre": "Tetuan",
  "lineas": [
    ["metro", 1]
  ]
},{
  "lat": 40.37019166319747,
  "lon": -3.613463483075256,
  "nombre": "La Gavia",
  "lineas": [
    ["metro", 1]
  ]
},{
  "lat": 40.42467689724428,
  "lon": -3.6763781595467036,
  "nombre": "Goya",
  "lineas": [
    ["metro", 2],
    ["metro", 4]
  ]
},{
  "lat": 40.42356040829087,
  "lon": -3.680181275021631,
  "nombre": "Principe de Vergara",
  "lineas": [
    ["metro", 2],
    ["metro", 9]
  ]
},{
  "lat": 40.42030671752325,
  "lon": -3.686244719177841,
  "nombre": "Retiro",
  "lineas": [
    ["metro", 2]
  ]
},{
  "lat": 40.42131540813318,
  "lon": -3.707955276656987,
  "nombre": "Santo Domingo",
  "lineas": [
    ["metro", 2]
  ]
},{
  "lat": 40.429837612135415,
  "lon": -3.7056218609198988,
  "nombre": "San Bernardo",
  "lineas": [
    ["metro", 2],
    ["metro", 4]
  ]
},{
  "lat": 40.36322802476594,
  "lon": -3.5995326897288193,
  "nombre": "Las Suertes",
  "lineas": [
    ["metro", 1]
  ]
},{
  "lat": 40.360068133185166,
  "lon": -3.59316035499877,
  "nombre": "Valdecarros",
  "lineas": [
    ["metro", 1]
  ]
},{
  "lat": 40.434923478284944,
  "lon": -3.698979992348473,
  "nombre": "Iglesia",
  "lineas": [
    ["metro", 1]
  ]
},{
  "lat": 40.47681536116508,
  "lon": -3.6763674414711556,
  "nombre": "Bambu",
  "lineas": [
    ["metro", 1]
  ]
},{
  "lat": 40.421044810272186,
  "lon": -3.7203040657101107,
  "nombre": "Principe Pio",
  "lineas": [
    ["cercanias", "C1"],
    ["cercanias", "C7"],
    ["cercanias", "C10"],
    ["metro", 6],
    ["metro", 10],
    ["metro", "R"]
  ]
},{
  "lat": 40.45842141927867,
  "lon": -3.689850751213803,
  "nombre": "Cuzco",
  "lineas": [
    ["metro", 10]
  ]
},{
  "lat": 40.45158917952577,
  "lon": -3.6903793467348454,
  "nombre": "Santiago Bernabeu",
  "lineas": [
    ["metro", 10]
  ]
},{
  "lat": 40.34533686988871,
  "lon": -3.812299957396567,
  "nombre": "Puerta del Sur",
  "lineas": [
    ["metro", 10],
    ["metro", 12]
  ]
},{
  "lat": 40.349848097734004,
  "lon": -3.8072012843672822,
  "nombre": "Joaquin Vilumbrales",
  "lineas": [
    ["metro", 10]
  ]
},{
  "lat": 40.380833614731245,
  "lon": -3.7279002491217077,
  "nombre": "Abrantes",
  "lineas": [
    ["metro", 11]
  ]
},{
  "lat": 40.39266410896103,
  "lon": -3.658682425344429,
  "nombre": "Portazgo",
  "lineas": [
    ["metro", 1]
  ]
},{
  "lat": 40.427991906767446,
  "lon": -3.6154690762577584,
  "nombre": "San Blas",
  "lineas": [
    ["metro", 7]
  ]
},{
  "lat": 40.4279923730252,
  "lon": -3.625721672941209,
  "nombre": "Simancas",
  "lineas": [
    ["metro", 7]
  ]
},{
  "lat": 40.48013859246556,
  "lon": -3.6668002833614652,
  "nombre": "Pinar de Chamartin",
  "lineas": [
    ["metro", 1],
    ["metro", 4],
    ["metro_ligero", "ML1"]
  ]
},{
  "lat": 40.39697847435999,
  "lon": -3.774561943767857,
  "nombre": "Colonia Jardin",
  "lineas": [
    ["metro", 10],
    ["metro_ligero", "ML2"],
    ["metro_ligero", "ML3"]
  ]
},{
  "lat": 40.345894380413725,
  "lon": -3.849338616599969,
  "nombre": "Parque Oeste",
  "lineas": [
    ["metro", 12]
  ]
},{
  "lat": 40.335122976598605,
  "lon": -3.8721796064244822,
  "nombre": "Universidad Rey Juan Carlos",
  "lineas": [
    ["metro", 12]
  ]
},{
  "lat": 40.32167696474467,
  "lon": -3.864889402970309,
  "nombre": "Pradillo",
  "lineas": [
    ["metro", 12]
  ]
},{
  "lat": 40.316524281645606,
  "lon": -3.874712477719213,
  "nombre": "Hospital de Mostoles",
  "lineas": [
    ["metro", 12]
  ]
},{
  "lat": 40.29324384631658,
  "lon": -3.7457610404433783,
  "nombre": "Conservatorio",
  "lineas": [
    ["metro", 12]
  ]
},{
  "lat": 40.29681266405529,
  "lon": -3.837683457120192,
  "nombre": "Loranca",
  "lineas": [
    ["metro", 12]
  ]
},{
  "lat": 40.28575548587764,
  "lon": -3.816416808685618,
  "nombre": "Hospital de Fuenlabrada",
  "lineas": [
    ["metro", 12]
  ]
},{
  "lat": 40.28517569649551,
  "lon": -3.8063229922835395,
  "nombre": "Parque Europa",
  "lineas": [
    ["metro", 12]
  ]
},{
  "lat": 40.433217315157556,
  "lon": -3.704332861250257,
  "nombre": "Quevedo",
  "lineas": [
    ["metro", 2]
  ]
},{
  "lat": 40.28874176914942,
  "lon": -3.7568233566673848,
  "nombre": "Arroyo Culebro",
  "lineas": [
    ["metro", 12]
  ]
},{
  "lat": 40.300813961926536,
  "lon": -3.7366369717124623,
  "nombre": "Alonso de Mendoza",
  "lineas": [
    ["metro", 12]
  ]
},{
  "lat": 40.32422701493734,
  "lon": -3.7181978645243983,
  "nombre": "Los Espartales",
  "lineas": [
    ["metro", 12]
  ]
},{
  "lat": 40.38977101214874,
  "lon": -3.6452165490428263,
  "nombre": "Alto del Arenal",
  "lineas": [
    ["metro", 1]
  ]
},{
  "lat": 40.33474910783056,
  "lon": -3.7526589509919104,
  "nombre": "Julian Besteiro",
  "lineas": [
    ["metro", 12]
  ]
},{
  "lat": 40.400137256937114,
  "lon": -3.6934837494478527,
  "nombre": "Delicias",
  "lineas": [
    ["cercanias", "C1"],
    ["cercanias", "C7"],
    ["cercanias", "C10"],
    ["metro", 3]
  ]
},{
  "lat": 40.33616314789595,
  "lon": -3.775873625300736,
  "nombre": "San Nicasio",
  "lineas": [
    ["metro", 12]
  ]
},{
  "lat": 40.38731574705667,
  "lon": -3.6395099006306384,
  "nombre": "Miguel Hernandez",
  "lineas": [
    ["metro", 1]
  ]
},{
  "lat": 40.37359884105576,
  "lon": -3.739102929190019,
  "nombre": "San Francisco",
  "lineas": [
    ["metro", 11]
  ]
},{
  "lat": 40.38363943761124,
  "lon": -3.7839229464393767,
  "nombre": "Aviacion Espa\u00f1ola",
  "lineas": [
    ["metro", 10]
  ]
},{
  "lat": 40.46800136207379,
  "lon": -3.6486683605201167,
  "nombre": "Pinar del Rey",
  "lineas": [
    ["metro", 8]
  ]
},{
  "lat": 40.426617234977186,
  "lon": -3.6505189139028626,
  "nombre": "La Elipa",
  "lineas": [
    ["metro", 2]
  ]
},{
  "lat": 40.43339348409986,
  "lon": -3.6001536542125243,
  "nombre": "Estadio Olimpico",
  "lineas": [
    ["metro", 7]
  ]
},{
  "lat": 40.32837092189286,
  "lon": -3.5205975209537232,
  "nombre": "Rivas Vaciamadrid",
  "lineas": [
    ["metro", 9]
  ]
},{
  "lat": 40.39156287721576,
  "lon": -3.6539061229836958,
  "nombre": "Buenos Aires",
  "lineas": [
    ["metro", 1]
  ]
},{
  "lat": 40.40051154957267,
  "lon": -3.635122556293407,
  "nombre": "Pavones",
  "lineas": [
    ["metro", 9]
  ]
},{
  "lat": 40.34122765634822,
  "lon": -3.711959108061805,
  "nombre": "Villaverde Alto",
  "lineas": [
    ["cercanias", "C4"],
    ["cercanias", "C5"],
    ["metro", 3]
  ]
},{
  "lat": 40.30903005583646,
  "lon": -3.8640211972261507,
  "nombre": "Manuela Malasa\u00f1a",
  "lineas": [
    ["metro", 12]
  ]
},{
  "lat": 40.35089476396152,
  "lon": -3.6926489418134363,
  "nombre": "Villaverde Bajo Cruce",
  "lineas": [
    ["metro", 3]
  ]
},{
  "lat": 40.47207793388664,
  "lon": -3.6825510898182108,
  "nombre": "Chamartin",
  "lineas": [
    ["cercanias", "C1"],
    ["cercanias", "C2"],
    ["cercanias", "C3"],
    ["cercanias", "C4"],
    ["cercanias", "C7"],
    ["cercanias", "C8"],
    ["cercanias", "C10"],
    ["metro", 1],
    ["metro", 10]
  ]
},{
  "lat": 40.48041293210537,
  "lon": -3.6858496955790008,
  "nombre": "Bego\u00f1a",
  "lineas": [
    ["metro", 10]
  ]
},{
  "lat": 40.54102356213352,
  "lon": -3.637384941176687,
  "nombre": "Marques de la Valdavia",
  "lineas": [
    ["metro", 10]
  ]
},{
  "lat": 40.55442320714419,
  "lon": -3.6351260237120413,
  "nombre": "Baunatal",
  "lineas": [
    ["metro", 10]
  ]
},{
  "lat": 40.491097784867534,
  "lon": -3.7163444822992076,
  "nombre": "Mirasierra",
  "lineas": [
    ["metro", 9]
  ]
},{
  "lat": 40.415048517836865,
  "lon": -3.669513941560342,
  "nombre": "Sainz de Baranda",
  "lineas": [
    ["metro", 6],
    ["metro", 9]
  ]
},{
  "lat": 40.4302055301581,
  "lon": -3.64105571498423,
  "nombre": "Ascao",
  "lineas": [
    ["metro", 7]
  ]
},{
  "lat": 40.402596715768595,
  "lon": -3.711358766770272,
  "nombre": "Piramides",
  "lineas": [
    ["cercanias", "C1"],
    ["cercanias", "C7"],
    ["cercanias", "C10"],
    ["metro", 5]
  ]
},{
  "lat": 40.32898523094555,
  "lon": -3.771536996688428,
  "nombre": "Leganes Central",
  "lineas": [
    ["metro", 12]
  ]
},{
  "lat": 40.350084340279416,
  "lon": -3.8317786206319795,
  "nombre": "Alcorcon Central",
  "lineas": [
    ["metro", 12]
  ]
},{
  "lat": 40.31862315788545,
  "lon": -3.7098540423000594,
  "nombre": "El Casar",
  "lineas": [
    ["metro", 12]
  ]
},{
  "lat": 40.39310270492071,
  "lon": -3.688640347447094,
  "nombre": "Arganzuela-planetario",
  "lineas": [
    ["metro", 6]
  ]
},{
  "lat": 40.3720024216854,
  "lon": -3.751906344267269,
  "nombre": "Carabanchel Alto",
  "lineas": [
    ["metro", 11]
  ]
},{
  "lat": 40.42239358382272,
  "lon": -3.6120646096811457,
  "nombre": "Avenida de Guadalajara",
  "lineas": [
    ["metro", 2]
  ]
},{
  "lat": 40.42374843104424,
  "lon": -3.6033055955674373,
  "nombre": "Las Rosas",
  "lineas": [
    ["metro", 2]
  ]
},{
  "lat": 40.36422401181158,
  "lon": -3.756902710588123,
  "nombre": "La Peseta",
  "lineas": [
    ["metro", 11]
  ]
},{
  "lat": 40.405099650652225,
  "lon": -3.745336959451509,
  "nombre": "Lucero",
  "lineas": [
    ["metro", 6]
  ]
},{
  "lat": 40.485015026073626,
  "lon": -3.723045541550223,
  "nombre": "Lacoma",
  "lineas": [
    ["metro", 7]
  ]
},{
  "lat": 40.48010261154569,
  "lon": -3.7183982522186554,
  "nombre": "Avda. de la Ilustracion",
  "lineas": [
    ["metro", 7]
  ]
},{
  "lat": 40.46482353283605,
  "lon": -3.715972126851418,
  "nombre": "Valdezarza",
  "lineas": [
    ["metro", 7]
  ]
},{
  "lat": 40.43499491303368,
  "lon": -3.7194503149644653,
  "nombre": "Moncloa",
  "lineas": [
    ["metro", 3],
    ["metro", 6]
  ]
},{
  "lat": 40.476874226693596,
  "lon": -3.6628954758911214,
  "nombre": "Manoteras",
  "lineas": [
    ["metro", 4]
  ]
},{
  "lat": 40.37238237036666,
  "lon": -3.6188413501245416,
  "nombre": "Congosto",
  "lineas": [
    ["metro", 1]
  ]
},{
  "lat": 40.475774163830884,
  "lon": -3.5825279097963674,
  "nombre": "Barajas",
  "lineas": [
    ["metro", 8]
  ]
},{
  "lat": 40.32177027008829,
  "lon": -3.7679730473046176,
  "nombre": "Hospital Severo Ochoa",
  "lineas": [
    ["metro", 12]
  ]
},{
  "lat": 40.55037483366552,
  "lon": -3.6233994104420226,
  "nombre": "Reyes Catolicos",
  "lineas": [
    ["metro", 10]
  ]
},{
  "lat": 40.55047998089715,
  "lon": -3.6468794495056858,
  "nombre": "Manuel de Falla",
  "lineas": [
    ["metro", 10]
  ]
},{
  "lat": 40.52759962236235,
  "lon": -3.658592087138037,
  "nombre": "La Granja",
  "lineas": [
    ["metro", 10]
  ]
},{
  "lat": 40.559769448196086,
  "lon": -3.6114547338421925,
  "nombre": "Hospital Infanta Sofia",
  "lineas": [
    ["metro", 10]
  ]
},{
  "lat": 40.44379456449,
  "lon": -3.6840618670570504,
  "nombre": "Republica Argentina",
  "lineas": [
    ["metro", 6]
  ]
},{
  "lat": 40.404215916403444,
  "lon": -3.6088588260062022,
  "nombre": "Vicalvaro",
  "lineas": [
    ["metro", 9]
  ]
},{
  "lat": 40.42373620597773,
  "lon": -3.5611923494996556,
  "nombre": "Coslada Central",
  "lineas": [
    ["metro", 7]
  ]
},{
  "lat": 40.439099399993054,
  "lon": -3.6520040012947503,
  "nombre": "Barrio de la Concepcion",
  "lineas": [
    ["metro", 7]
  ]
},{
  "lat": 40.41246356569,
  "lon": -3.6993729633448895,
  "nombre": "Anton Martin",
  "lineas": [
    ["metro", 1]
  ]
},{
  "lat": 40.43837537611044,
  "lon": -3.6992456432372576,
  "nombre": "Alonso Cano",
  "lineas": [
    ["metro", 7]
  ]
},{
  "lat": 40.45648182077827,
  "lon": -3.712386672198295,
  "nombre": "Francos Rodriguez",
  "lineas": [
    ["metro", 7]
  ]
},{
  "lat": 40.47021772039073,
  "lon": -3.7176948552412226,
  "nombre": "Antonio Machado",
  "lineas": [
    ["metro", 7]
  ]
},{
  "lat": 40.303669277437,
  "lon": -3.447518960780649,
  "nombre": "Arganda del Rey",
  "lineas": [
    ["metro", 9]
  ]
},{
  "lat": 40.47688906880558,
  "lon": -3.703164503841757,
  "nombre": "Barrio del Pilar",
  "lineas": [
    ["metro", 9]
  ]
},{
  "lat": 40.377706448671745,
  "lon": -3.7914749880293295,
  "nombre": "Cuatro Vientos",
  "lineas": [
    ["cercanias", "C5"],
    ["metro", 10]
  ]
},{
  "lat": 40.451448432622364,
  "lon": -3.677380122875907,
  "nombre": "Concha Espina",
  "lineas": [
    ["metro", 9]
  ]
},{
  "lat": 40.46943537698728,
  "lon": -3.6958833297651754,
  "nombre": "Ventilla",
  "lineas": [
    ["metro", 9]
  ]
},{
  "lat": 40.467625851508785,
  "lon": -3.6791705524779017,
  "nombre": "Duque de Pastrana",
  "lineas": [
    ["metro", 9]
  ]
},{
  "lat": 40.46940491053677,
  "lon": -3.638321448311731,
  "nombre": "Mar de Cristal",
  "lineas": [
    ["metro", 4],
    ["metro", 8]
  ]
},{
  "lat": 40.41761001821852,
  "lon": -3.5345349720982124,
  "nombre": "Hospital del Henares",
  "lineas": [
    ["metro", 7]
  ]
},{
  "lat": 40.43944760234025,
  "lon": -3.6629705808692217,
  "nombre": "Parque de las Avenidas",
  "lineas": [
    ["metro", 7]
  ]
},{
  "lat": 40.422933178079816,
  "lon": -3.6976165924437825,
  "nombre": "Chueca",
  "lineas": [
    ["metro", 5]
  ]
},{
  "lat": 40.42514348413913,
  "lon": -3.5479238333382477,
  "nombre": "La Rambla",
  "lineas": [
    ["metro", 7]
  ]
},{
  "lat": 40.42249687009597,
  "lon": -3.5691884702656647,
  "nombre": "Barrio del Puerto",
  "lineas": [
    ["metro", 7]
  ]
},{
  "lat": 40.42441224966061,
  "lon": -3.5354145225517146,
  "nombre": "San Fernando",
  "lineas": [
    ["metro", 7]
  ]
},{
  "lat": 40.41776948524124,
  "lon": -3.5271783527904157,
  "nombre": "Henares",
  "lineas": [
    ["metro", 7]
  ]
},{
  "lat": 40.44426588110329,
  "lon": -3.6782141096710466,
  "nombre": "Cruz del Rayo",
  "lineas": [
    ["metro", 9]
  ]
},{
  "lat": 40.40445052226359,
  "lon": -3.6809794170757697,
  "nombre": "Menendez Pelayo",
  "lineas": [
    ["metro", 1]
  ]
},{
  "lat": 40.359585428137,
  "lon": -3.6936264441706634,
  "nombre": "Ciudad de los Angeles",
  "lineas": [
    ["metro", 3]
  ]
},{
  "lat": 40.34154193600964,
  "lon": -3.6931802991863165,
  "nombre": "San Cristobal",
  "lineas": [
    ["metro", 3]
  ]
},{
  "lat": 40.4289531642728,
  "lon": -3.7016601206717774,
  "nombre": "Bilbao",
  "lineas": [
    ["metro", 1],
    ["metro", 4]
  ]
},{
  "lat": 40.40512625031124,
  "lon": -3.702652427473792,
  "nombre": "Embajadores",
  "lineas": [
    ["cercanias", "C5"],
    ["metro", 3]
  ]
},{
  "lat": 40.385627623016944,
  "lon": -3.7607741860918886,
  "nombre": "Aluche",
  "lineas": [
    ["cercanias", "C5"],
    ["metro", 5]
  ]
},{
  "lat": 40.40387164372991,
  "lon": -3.7066410860751864,
  "nombre": "Acacias",
  "lineas": [
    ["metro", 5]
  ]
},{
  "lat": 40.39115637872528,
  "lon": -3.695082526471354,
  "nombre": "Legazpi",
  "lineas": [
    ["metro", 3],
    ["metro", 6]
  ]
},{
  "lat": 40.39537697448985,
  "lon": -3.6781103453756154,
  "nombre": "Mendez Alvaro",
  "lineas": [
    ["cercanias", "C1"],
    ["cercanias", "C5"],
    ["cercanias", "C7"],
    ["cercanias", "C10"],
    ["metro", 6]
  ]
},{
  "lat": 40.388466141288454,
  "lon": -3.7312937126465364,
  "nombre": "Oporto",
  "lineas": [
    ["metro", 5],
    ["metro", 6]
  ]
},{
  "lat": 40.42543215941902,
  "lon": -3.6866304363833353,
  "nombre": "Serrano",
  "lineas": [
    ["metro", 4]
  ]
},{
  "lat": 40.505252159110974,
  "lon": -3.6957506950563808,
  "nombre": "Montecarmelo",
  "lineas": [
    ["metro", 10]
  ]
},{
  "lat": 40.44824838816102,
  "lon": -3.6679061529956103,
  "nombre": "Alfonso XIII",
  "lineas": [
    ["metro", 4]
  ]
},{
  "lat": 40.453542634899286,
  "lon": -3.6611819996826074,
  "nombre": "Avenida de la Paz",
  "lineas": [
    ["metro", 4]
  ]
},{
  "lat": 40.45944729719177,
  "lon": -3.645817180039627,
  "nombre": "Esperanza",
  "lineas": [
    ["metro", 4]
  ]
},{
  "lat": 40.47447073958695,
  "lon": -3.639577276564596,
  "nombre": "San Lorenzo",
  "lineas": [
    ["metro", 4]
  ]
},{
  "lat": 40.449420844365704,
  "lon": -3.608160323120323,
  "nombre": "Canillejas",
  "lineas": [
    ["metro", 5]
  ]
},{
  "lat": 40.443743296414574,
  "lon": -3.616994705938824,
  "nombre": "Torre Arias",
  "lineas": [
    ["metro", 5]
  ]
},{
  "lat": 40.44085124307767,
  "lon": -3.6268397441771407,
  "nombre": "Suanzes",
  "lineas": [
    ["metro", 5]
  ]
},{
  "lat": 40.43358494164949,
  "lon": -3.6473622420983225,
  "nombre": "Quintana",
  "lineas": [
    ["metro", 5]
  ]
},{
  "lat": 40.43189329209465,
  "lon": -3.6575725472596625,
  "nombre": "El Carmen",
  "lineas": [
    ["metro", 5]
  ]
},{
  "lat": 40.43315793720963,
  "lon": -3.689541598575491,
  "nombre": "Ruben Dario",
  "lineas": [
    ["metro", 5]
  ]
},{
  "lat": 40.397356290324495,
  "lon": -3.7159600765140515,
  "nombre": "Marques de Vadillo",
  "lineas": [
    ["metro", 5]
  ]
},{
  "lat": 40.39335176845625,
  "lon": -3.7236048242936626,
  "nombre": "Urgel",
  "lineas": [
    ["metro", 5]
  ]
},{
  "lat": 40.38884702575721,
  "lon": -3.7398245500065785,
  "nombre": "Vista Alegre",
  "lineas": [
    ["metro", 5]
  ]
},{
  "lat": 40.33190872697094,
  "lon": -3.6987185311008686,
  "nombre": "San Cristobal Industrial",
  "lineas": [
    ["cercanias", "C3"]
  ]
},{
  "lat": 40.34236284744263,
  "lon": -3.68384596290414,
  "nombre": "San Cristobal de los Angeles",
  "lineas": [
    ["cercanias", "C3"]
  ]
},{
  "lat": 40.54744527679952,
  "lon": -3.6543352951607724,
  "nombre": "Valdelasfuentes",
  "lineas": [
    ["cercanias", "C4"]
  ]
},{
  "lat": 40.554060967974344,
  "lon": -3.6833399320111733,
  "nombre": "Universidad p. Comillas",
  "lineas": [
    ["cercanias", "C4"]
  ]
},{
  "lat": 40.543783869078936,
  "lon": -3.700344071491926,
  "nombre": "Cantoblanco Universidad",
  "lineas": [
    ["cercanias", "C4"]
  ]
},{
  "lat": 40.501558787192785,
  "lon": -3.682336985855203,
  "nombre": "Fuencarral",
  "lineas": [
    ["cercanias", "C4"]
  ]
},{
  "lat": 40.50533902956686,
  "lon": -3.3354129781376396,
  "nombre": "Alcal\u00e1 de Henares Universidad",
  "lineas": [
    ["cercanias", "C2"]
  ]
},{
  "lat": 40.784409482292574,
  "lon": -4.004734713529762,
  "nombre": "Puerto Navacerrada",
  "lineas": [
    ["cercanias", "C9"]
  ]
},{
  "lat": 40.56102715789606,
  "lon": -3.265456215576288,
  "nombre": "Azuqueca",
  "lineas": [
    ["cercanias", "C2"]
  ]
},{
  "lat": 40.53461610204914,
  "lon": -3.2986555143752287,
  "nombre": "Meco",
  "lineas": [
    ["cercanias", "C2"]
  ]
},{
  "lat": 40.47427810713918,
  "lon": -3.845342717612885,
  "nombre": "Majadahonda",
  "lineas": [
    ["cercanias", "C7"],
    ["cercanias", "C10"]
  ]
},{
  "lat": 40.46537297433995,
  "lon": -3.8077378665593757,
  "nombre": "Barrial-c.com.pozuelo, el",
  "lineas": [
    ["cercanias", "C7"],
    ["cercanias", "C10"]
  ]
},{
  "lat": 40.55251968297372,
  "lon": -3.896832146328076,
  "nombre": "Matas, las",
  "lineas": [
    ["cercanias", "C3"],
    ["cercanias", "C8"],
    ["cercanias", "C10"]
  ]
},{
  "lat": 40.52230018361854,
  "lon": -3.8821620895921325,
  "nombre": "Pinar de las Rozas",
  "lineas": [
    ["cercanias", "C3"],
    ["cercanias", "C8"],
    ["cercanias", "C10"]
  ]
},{
  "lat": 40.494231177075164,
  "lon": -3.868123357025702,
  "nombre": "Rozas, las",
  "lineas": [
    ["cercanias", "C7"],
    ["cercanias", "C10"]
  ]
},{
  "lat": 40.35028341439216,
  "lon": -3.7051605745241463,
  "nombre": "Puente Alcocer",
  "lineas": [
    ["cercanias", "C5"]
  ]
},{
  "lat": 40.37590205182405,
  "lon": -3.656225994392958,
  "nombre": "Pozo, el",
  "lineas": [
    ["cercanias", "C2"],
    ["cercanias", "C7"]
  ]
},{
  "lat": 40.382213776952334,
  "lon": -3.6245516982631125,
  "nombre": "Vallecas",
  "lineas": [
    ["cercanias", "C2"],
    ["cercanias", "C7"]
  ]
},{
  "lat": 40.35653328667515,
  "lon": -3.81588428698701,
  "nombre": "San Jose de Valderas",
  "lineas": [
    ["cercanias", "C5"]
  ]
},{
  "lat": 40.34085438371625,
  "lon": -3.7483034330063183,
  "nombre": "Zarzaquemada",
  "lineas": [
    ["cercanias", "C5"]
  ]
},{
  "lat": 40.423409022018646,
  "lon": -3.6908577595028156,
  "nombre": "Recoletos",
  "lineas": [
    ["cercanias", "C1"],
    ["cercanias", "C2"],
    ["cercanias", "C7"],
    ["cercanias", "C8"],
    ["cercanias", "C10"]
  ]
},{
  "lat": 40.378955634845695,
  "lon": -3.698613514001805,
  "nombre": "Doce de Octubre",
  "lineas": [
    ["cercanias", "C5"]
  ]
},{
  "lat": 40.480432511647656,
  "lon": -3.3931687387899947,
  "nombre": "Garena, la",
  "lineas": [
    ["cercanias", "C2"],
    ["cercanias", "C7"]
  ]
},{
  "lat": 40.442660066138885,
  "lon": -3.5338486098065465,
  "nombre": "San Fernando",
  "lineas": [
    ["cercanias", "C2"],
    ["cercanias", "C7"]
  ]
},{
  "lat": 40.73756597399377,
  "lon": -4.065904552006556,
  "nombre": "Cercedilla",
  "lineas": [
    ["cercanias", "C8"],
    ["cercanias", "C9"]
  ]
},{
  "lat": 40.57451260297521,
  "lon": -3.956537627791868,
  "nombre": "Torrelodones",
  "lineas": [
    ["cercanias", "C3"],
    ["cercanias", "C8"],
    ["cercanias", "C10"]
  ]
},{
  "lat": 40.8222598992008,
  "lon": -3.9645203402910556,
  "nombre": "Cotos",
  "lineas": [
    ["cercanias", "C9"]
  ]
},{
  "lat": 40.25564582892282,
  "lon": -3.828465169614716,
  "nombre": "Humanes",
  "lineas": [
    ["cercanias", "C5"]
  ]
},{
  "lat": 40.36690522861348,
  "lon": -3.7044165807754013,
  "nombre": "Orcasitas",
  "lineas": [
    ["cercanias", "C5"]
  ]
},{
  "lat": 40.296721776526496,
  "lon": -3.792475502161728,
  "nombre": "Serna, la",
  "lineas": [
    ["cercanias", "C5"]
  ]
},{
  "lat": 40.28824383694636,
  "lon": -3.7373414868572663,
  "nombre": "Getafe Sector 3",
  "lineas": [
    ["cercanias", "C4"]
  ]
},{
  "lat": 40.32304243289471,
  "lon": -3.727373655673288,
  "nombre": "Margaritas-universidad, las",
  "lineas": [
    ["cercanias", "C4"]
  ]
},{
  "lat": 40.35263918258443,
  "lon": -3.683982812990118,
  "nombre": "Villaverde Bajo",
  "lineas": [
    ["cercanias", "C3"],
    ["cercanias", "C4"]
  ]
},{
  "lat": 40.62636567831688,
  "lon": -4.008095253759601,
  "nombre": "Villalba",
  "lineas": [
    ["cercanias", "C3"],
    ["cercanias", "C8"],
    ["cercanias", "C10"]
  ]
},{
  "lat": 40.40131734435834,
  "lon": -3.5959286284884584,
  "nombre": "Vicalvaro",
  "lineas": [
    ["cercanias", "C2"],
    ["cercanias", "C7"]
  ]
},{
  "lat": 40.38365125020966,
  "lon": -3.7685641486773345,
  "nombre": "Fanjul",
  "lineas": [
    ["cercanias", "C5"]
  ]
},{
  "lat": 40.4237352848222,
  "lon": -3.561136198051036,
  "nombre": "Coslada",
  "lineas": [
    ["cercanias", "C2"],
    ["cercanias", "C7"]
  ]
},{
  "lat": 40.32898560482768,
  "lon": -3.7714809408526055,
  "nombre": "Leganes",
  "lineas": [
    ["cercanias", "C5"]
  ]
},{
  "lat": 40.35008229363389,
  "lon": -3.8317318629241592,
  "nombre": "Alcorcon",
  "lineas": [
    ["cercanias", "C5"]
  ]
},{
  "lat": 40.32850297480789,
  "lon": -3.863492377242899,
  "nombre": "Mostoles",
  "lineas": [
    ["cercanias", "C5"]
  ]
},{
  "lat": 40.282677332269344,
  "lon": -3.7988540076525013,
  "nombre": "Fuenlabrada",
  "lineas": [
    ["cercanias", "C5"]
  ]
},{
  "lat": 40.44832756433422,
  "lon": -3.7858827930962953,
  "nombre": "Aravaca",
  "lineas": [
    ["cercanias", "C7"],
    ["cercanias", "C10"],
    ["metro_ligero", "ML2"]
  ]
},{
  "lat": 40.03482994225127,
  "lon": -3.618308442123163,
  "nombre": "Aranjuez",
  "lineas": [
    ["cercanias", "C3"]
  ]
},{
  "lat": 40.15906287710526,
  "lon": -3.6100279137781817,
  "nombre": "Ciempozuelos",
  "lineas": [
    ["cercanias", "C3"]
  ]
},{
  "lat": 40.196042129028015,
  "lon": -3.664815856051736,
  "nombre": "Valdemoro",
  "lineas": [
    ["cercanias", "C3"]
  ]
},{
  "lat": 40.24279049500308,
  "lon": -3.7037375583151633,
  "nombre": "Pinto",
  "lineas": [
    ["cercanias", "C3"]
  ]
},{
  "lat": 40.44726854001386,
  "lon": -3.800119397166743,
  "nombre": "Pozuelo",
  "lineas": [
    ["cercanias", "C7"],
    ["cercanias", "C10"]
  ]
},{
  "lat": 40.30547693004687,
  "lon": -3.707694127991331,
  "nombre": "Getafe Industrial",
  "lineas": [
    ["cercanias", "C3"]
  ]
},{
  "lat": 40.38118814924765,
  "lon": -3.7802731532655143,
  "nombre": "Aguilas, las",
  "lineas": [
    ["cercanias", "C5"]
  ]
},{
  "lat": 40.546567955020784,
  "lon": -3.6351867666972373,
  "nombre": "Alcobendas-s.s. de los Reyes",
  "lineas": [
    ["cercanias", "C4"]
  ]
},{
  "lat": 40.61786503227284,
  "lon": -4.031107448146834,
  "nombre": "San Yago",
  "lineas": [
    ["cercanias", "C3"]
  ]
},{
  "lat": 40.64408262467805,
  "lon": -3.182390038872053,
  "nombre": "Guadalajara",
  "lineas": [
    ["cercanias", "C2"]
  ]
},{
  "lat": 40.64497079617606,
  "lon": -3.7757317315743495,
  "nombre": "Colmenar Viejo",
  "lineas": [
    ["cercanias", "C4"]
  ]
},{
  "lat": 40.598439940505514,
  "lon": -3.7156442112225907,
  "nombre": "Tres Cantos",
  "lineas": [
    ["cercanias", "C4"]
  ]
},{
  "lat": 40.55857253266775,
  "lon": -3.7140709351633476,
  "nombre": "Goloso, el",
  "lineas": [
    ["cercanias", "C4"]
  ]
},{
  "lat": 40.48824112422756,
  "lon": -3.6947336373996733,
  "nombre": "Ramon y Cajal",
  "lineas": [
    ["cercanias", "C3"],
    ["cercanias", "C7"],
    ["cercanias", "C8"]
  ]
},{
  "lat": 40.5689235750668,
  "lon": -4.269331271759277,
  "nombre": "Santa Maria de la Alameda",
  "lineas": [
    ["cercanias", "C3"]
  ]
},{
  "lat": 40.520781785428944,
  "lon": -4.246711422023363,
  "nombre": "Robledo de Chavela",
  "lineas": [
    ["cercanias", "C3"]
  ]
},{
  "lat": 40.60941277462957,
  "lon": -4.046055117096076,
  "nombre": "Zorreras, las",
  "lineas": [
    ["cercanias", "C3"]
  ]
},{
  "lat": 40.484780370391526,
  "lon": -3.6630352794189154,
  "nombre": "Fuente de la Mora",
  "lineas": [
    ["cercanias", "C1"],
    ["cercanias", "C7"],
    ["cercanias", "C10"],
    ["metro_ligero", "ML1"]
  ]
},{
  "lat": 40.341892138264384,
  "lon": -3.8424209576101513,
  "nombre": "Retamas, las",
  "lineas": [
    ["cercanias", "C5"]
  ]
},{
  "lat": 40.53871801981312,
  "lon": -4.158169621701023,
  "nombre": "Zarzalejo",
  "lineas": [
    ["cercanias", "C3"]
  ]
},{
  "lat": 40.69275542082084,
  "lon": -4.035874643306193,
  "nombre": "Collado Mediano",
  "lineas": [
    ["cercanias", "C8"]
  ]
},{
  "lat": 40.707344052274486,
  "lon": -4.066809246647322,
  "nombre": "Molinos, los",
  "lineas": [
    ["cercanias", "C8"]
  ]
},{
  "lat": 40.65816295137058,
  "lon": -4.035058751030537,
  "nombre": "Alpedrete",
  "lineas": [
    ["cercanias", "C8"]
  ]
},{
  "lat": 40.63857653148875,
  "lon": -4.021894427639783,
  "nombre": "Negrales, los",
  "lineas": [
    ["cercanias", "C8"]
  ]
},{
  "lat": 40.60011360959742,
  "lon": -3.9818493912420383,
  "nombre": "Galapagar-la Navata",
  "lineas": [
    ["cercanias", "C3"],
    ["cercanias", "C8"],
    ["cercanias", "C10"]
  ]
},{
  "lat": 40.381671489835824,
  "lon": -3.6680040064114587,
  "nombre": "Asamblea de Madrid-entrevias",
  "lineas": [
    ["cercanias", "C2"],
    ["cercanias", "C7"]
  ]
},{
  "lat": 40.38698557495151,
  "lon": -3.609063931707459,
  "nombre": "Santa Eugenia",
  "lineas": [
    ["cercanias", "C2"],
    ["cercanias", "C7"]
  ]
},{
  "lat": 40.48903027574293,
  "lon": -3.3663356703140543,
  "nombre": "Alcal\u00e1 de Henares",
  "lineas": [
    ["cercanias", "C2"],
    ["cercanias", "C7"]
  ]
},{
  "lat": 40.454601488963675,
  "lon": -3.4798198074479614,
  "nombre": "Torrejon de Ardoz",
  "lineas": [
    ["cercanias", "C2"],
    ["cercanias", "C7"]
  ]
},{
  "lat": 40.2407668404867,
  "lon": -3.7693629409269445,
  "nombre": "Parla",
  "lineas": [
    ["cercanias", "C4"]
  ]
},{
  "lat": 40.585267152336165,
  "lon": -4.132330676958178,
  "nombre": "Escorial, el",
  "lineas": [
    ["cercanias", "C3"]
  ]
},{
  "lat": 40.31250410240478,
  "lon": -3.7833438840071927,
  "nombre": "Parque Polvoranca",
  "lineas": [
    ["cercanias", "C5"]
  ]
},{
  "lat": 40.33089245033729,
  "lon": -3.8823370560330543,
  "nombre": "Mostoles el Soto",
  "lineas": [
    ["cercanias", "C5"]
  ]
},{
  "lat": 40.31846615191219,
  "lon": -3.7098354105204603,
  "nombre": "Casar, el",
  "lineas": [
    ["cercanias", "C3"]
  ]
},{
  "lat": 40.463527941834286,
  "lon": -3.4413394419542906,
  "nombre": "Soto del Henares",
  "lineas": [
    ["cercanias", "C2"],
    ["cercanias", "C7"]
  ]
},{
  "lat": 40.482301536325956,
  "lon": -3.6164246781344764,
  "nombre": "Valdebebas",
  "lineas": [
    ["cercanias", "C1"]
  ]
},{
  "lat": 40.24409801818806,
  "lon": -3.7575609015840663,
  "nombre": "Plaza de Toros",
  "lineas": [
    ["metro_ligero", "ML4"]
  ]
},{
  "lat": 40.23141199703029,
  "lon": -3.7699971999585014,
  "nombre": "Reyes Catolicos",
  "lineas": [
    ["metro_ligero", "ML4"]
  ]
},{
  "lat": 40.4873420302434,
  "lon": -3.6609832927570727,
  "nombre": "Virgen del Cortijo",
  "lineas": [
    ["metro_ligero", "ML1"]
  ]
},{
  "lat": 40.39528970504359,
  "lon": -3.8643907767295365,
  "nombre": "Cantabria",
  "lineas": [
    ["metro_ligero", "ML3"]
  ]
},{
  "lat": 40.40512936696954,
  "lon": -3.8926349162345755,
  "nombre": "Siglo XXI",
  "lineas": [
    ["metro_ligero", "ML3"]
  ]
},{
  "lat": 40.39525430793817,
  "lon": -3.78993320989352,
  "nombre": "Jose Isbert",
  "lineas": [
    ["metro_ligero", "ML3"]
  ]
},{
  "lat": 40.407210936668534,
  "lon": -3.784404144259346,
  "nombre": "Colonia de los Angeles",
  "lineas": [
    ["metro_ligero", "ML2"]
  ]
},{
  "lat": 40.439305324940285,
  "lon": -3.7930537034212537,
  "nombre": "Avenida de Europa",
  "lineas": [
    ["metro_ligero", "ML2"]
  ]
},{
  "lat": 40.221948931796426,
  "lon": -3.754058822442964,
  "nombre": "Tierra Norte",
  "lineas": [
    ["metro_ligero", "ML4"]
  ]
},{
  "lat": 40.22683345029126,
  "lon": -3.7552177874919375,
  "nombre": "Venus Sur",
  "lineas": [
    ["metro_ligero", "ML4"]
  ]
},{
  "lat": 40.23469889745326,
  "lon": -3.752401511048391,
  "nombre": "Jaime I Sur",
  "lineas": [
    ["metro_ligero", "ML4"]
  ]
},{
  "lat": 40.49716632405361,
  "lon": -3.6588853799792647,
  "nombre": "Maria Tudor",
  "lineas": [
    ["metro_ligero", "ML1"]
  ]
},{
  "lat": 40.41536170760361,
  "lon": -3.7925231412715257,
  "nombre": "Somosaguas Sur",
  "lineas": [
    ["metro_ligero", "ML2"]
  ]
},{
  "lat": 40.22342798706743,
  "lon": -3.760715819191075,
  "nombre": "Avenida Sistema Solar",
  "lineas": [
    ["metro_ligero", "ML4"]
  ]
},{
  "lat": 40.222544049644526,
  "lon": -3.756745132307024,
  "nombre": "Tierra Sur",
  "lineas": [
    ["metro_ligero", "ML4"]
  ]
},{
  "lat": 40.22626547769358,
  "lon": -3.752508114667538,
  "nombre": "Venus Norte",
  "lineas": [
    ["metro_ligero", "ML4"]
  ]
},{
  "lat": 40.39687918616296,
  "lon": -3.8038565358469474,
  "nombre": "Cocheras",
  "lineas": [
    ["metro_ligero", "ML3"]
  ]
},{
  "lat": 40.23071651919087,
  "lon": -3.7538268121416807,
  "nombre": "Estrella Polar Sur",
  "lineas": [
    ["metro_ligero", "ML4"]
  ]
},{
  "lat": 40.23014851572438,
  "lon": -3.7511169928205086,
  "nombre": "Estrella Polar Norte",
  "lineas": [
    ["metro_ligero", "ML4"]
  ]
},{
  "lat": 40.23413987008551,
  "lon": -3.749691645546824,
  "nombre": "Jaime I Norte",
  "lineas": [
    ["metro_ligero", "ML4"]
  ]
},{
  "lat": 40.23866666373017,
  "lon": -3.7504468712636876,
  "nombre": "Poligono Industrial Ciudad de Parla",
  "lineas": [
    ["metro_ligero", "ML4"]
  ]
},{
  "lat": 40.40229787315838,
  "lon": -3.7812133471767897,
  "nombre": "Prado de la Vega",
  "lineas": [
    ["metro_ligero", "ML2"]
  ]
},{
  "lat": 40.397923166947564,
  "lon": -3.835802277673375,
  "nombre": "Monteprincipe",
  "lineas": [
    ["metro_ligero", "ML3"]
  ]
},{
  "lat": 40.39420372181503,
  "lon": -3.8381129120838877,
  "nombre": "Ventorro del Cano",
  "lineas": [
    ["metro_ligero", "ML3"]
  ]
},{
  "lat": 40.3950165090596,
  "lon": -3.8477379086532,
  "nombre": "Prado del Espino",
  "lineas": [
    ["metro_ligero", "ML3"]
  ]
},{
  "lat": 40.40196056002843,
  "lon": -3.8793830198331847,
  "nombre": "Ferial de Boadilla",
  "lineas": [
    ["metro_ligero", "ML3"]
  ]
},{
  "lat": 40.407135778116874,
  "lon": -3.8800395541430457,
  "nombre": "Boadilla Centro",
  "lineas": [
    ["metro_ligero", "ML3"]
  ]
},{
  "lat": 40.405641670253814,
  "lon": -3.885759333426689,
  "nombre": "Nuevo Mundo",
  "lineas": [
    ["metro_ligero", "ML3"]
  ]
},{
  "lat": 40.40594831041859,
  "lon": -3.8974068190206776,
  "nombre": "Infante Don Luis",
  "lineas": [
    ["metro_ligero", "ML3"]
  ]
},{
  "lat": 40.407772557615175,
  "lon": -3.9037832476639047,
  "nombre": "Puerta de Boadilla",
  "lineas": [
    ["metro_ligero", "ML3"]
  ]
},{
  "lat": 40.24598619616603,
  "lon": -3.7663527971077695,
  "nombre": "La Ballena",
  "lineas": [
    ["metro_ligero", "ML4"]
  ]
},{
  "lat": 40.397087507472364,
  "lon": -3.783992204256198,
  "nombre": "Ciudad de la Imagen",
  "lineas": [
    ["metro_ligero", "ML3"]
  ]
},{
  "lat": 40.394549038118356,
  "lon": -3.79556901678584,
  "nombre": "Ciudad del Cine",
  "lineas": [
    ["metro_ligero", "ML3"]
  ]
},{
  "lat": 40.39871688431011,
  "lon": -3.816746127429235,
  "nombre": "Retamares",
  "lineas": [
    ["metro_ligero", "ML3"]
  ]
},{
  "lat": 40.493677560974476,
  "lon": -3.6558414213066546,
  "nombre": "Blasco Iba\u00f1ez",
  "lineas": [
    ["metro_ligero", "ML1"]
  ]
},{
  "lat": 40.505435701499316,
  "lon": -3.6650672950829484,
  "nombre": "Palas de Rey",
  "lineas": [
    ["metro_ligero", "ML1"]
  ]
},{
  "lat": 40.41046934024675,
  "lon": -3.7874826476955246,
  "nombre": "Prado del Rey",
  "lineas": [
    ["metro_ligero", "ML2"]
  ]
},{
  "lat": 40.41936525515764,
  "lon": -3.7987370106146594,
  "nombre": "Somosaguas Centro",
  "lineas": [
    ["metro_ligero", "ML2"]
  ]
},{
  "lat": 40.42307328105899,
  "lon": -3.8044743773209664,
  "nombre": "Pozuelo Oeste",
  "lineas": [
    ["metro_ligero", "ML2"]
  ]
},{
  "lat": 40.43058344761212,
  "lon": -3.807546433880939,
  "nombre": "Belgica",
  "lineas": [
    ["metro_ligero", "ML2"]
  ]
},{
  "lat": 40.432534598923226,
  "lon": -3.801616011585034,
  "nombre": "Dos Castillas",
  "lineas": [
    ["metro_ligero", "ML2"]
  ]
},{
  "lat": 40.43338034165621,
  "lon": -3.7952478043919546,
  "nombre": "Campus de Somosaguas",
  "lineas": [
    ["metro_ligero", "ML2"]
  ]
},{
  "lat": 40.44486759437203,
  "lon": -3.7911969441751623,
  "nombre": "Berna",
  "lineas": [
    ["metro_ligero", "ML2"]
  ]
},{
  "lat": 40.24534608751485,
  "lon": -3.7623246637682537,
  "nombre": "Julio Romero de Torres",
  "lineas": [
    ["metro_ligero", "ML4"]
  ]
},{
  "lat": 40.237705593014724,
  "lon": -3.7705856605070727,
  "nombre": "Iglesia Centro",
  "lineas": [
    ["metro_ligero", "ML4"]
  ]
},{
  "lat": 40.2347296984959,
  "lon": -3.772362275212961,
  "nombre": "Bulevar Sur",
  "lineas": [
    ["metro_ligero", "ML4"]
  ]
},{
  "lat": 40.23113825455702,
  "lon": -3.765080668058394,
  "nombre": "Isabel II",
  "lineas": [
    ["metro_ligero", "ML4"]
  ]
},{
  "lat": 40.22816191400878,
  "lon": -3.7614739646080433,
  "nombre": "Parque Parla Este",
  "lineas": [
    ["metro_ligero", "ML4"]
  ]
},{
  "lat": 40.48545639949088,
  "lon": -3.6535314820351035,
  "nombre": "Antonio Saura",
  "lineas": [
    ["metro_ligero", "ML1"]
  ]
},{
  "lat": 40.489045209815714,
  "lon": -3.6513597368705764,
  "nombre": "Alvarez de Villaamil",
  "lineas": [
    ["metro_ligero", "ML1"]
  ]
},{
  "lat": 40.240793734420016,
  "lon": -3.7695390522093017,
  "nombre": "Parla Centro - Bulevar Norte",
  "lineas": [
    ["metro_ligero", "ML4"]
  ]
}]